{"type":"FeatureCollection","features":[{"type":"Feature","properties":{"Name":"Santa Rosa High School","Type":"High School"},"geometry":{"type":"Point","coordinates":[-122.717965,38.453113]},"id":1},{"type":"Feature","properties":{"Name":"Piner High School","Type":"High School"},"geometry":{"type":"Point","coordinates":[-122.769429,38.460781]},"id":4},{"type":"Feature","properties":{"Name":"Montgomery High School","Type":"High School"},"geometry":{"type":"Point","coordinates":[-122.684818,38.440103]},"id":5},{"type":"Feature","properties":{"Name":"Maria Carrillo High School","Type":"High School"},"geometry":{"type":"Point","coordinates":[-122.65826,38.480002]},"id":6},{"type":"Feature","properties":{"Name":"Elsie Allen High School","Type":"High School"},"geometry":{"type":"Point","coordinates":[-122.734266,38.40501]}}]}